[
    {
        "name": "トヨタ自動車",
        "address": "愛知県豊田市トヨタ町1",
        "sector": "自動車",
        "lat": 35.051659,
        "lng": 137.160568
    },
    {
        "name": "ソニーグループ",
        "address": "東京都港区港南1-7-1",
        "sector": "電気機器",
        "lat": 35.631401,
        "lng": 139.743973
    },
    {
        "name": "任天堂",
        "address": "京都府京都市南区上鳥羽鉾立町11-1",
        "sector": "その他製品",
        "lat": 34.970066,
        "lng": 135.755798
    },
    {
        "name": "ソフトバンクグループ",
        "address": "東京都港区海岸1-7-1",
        "sector": "情報・通信業",
        "lat": 35.655045,
        "lng": 139.760864
    },
    {
        "name": "キーエンス",
        "address": "大阪府大阪市東淀川区東中島1-3-14",
        "sector": "電気機器",
        "lat": 34.72765,
        "lng": 135.503357
    },
    {
        "name": "ファーストリテイリング",
        "address": "山口県山口市佐山717-1",
        "sector": "小売業",
        "lat": 34.042114,
        "lng": 131.346695
    },
    {
        "name": "東京エレクトロン",
        "address": "東京都港区赤坂5-3-1",
        "sector": "電気機器",
        "lat": 35.672558,
        "lng": 139.735168
    },
    {
        "name": "信越化学工業",
        "address": "東京都千代田区丸の内1-4-1",
        "sector": "化学",
        "lat": 35.684025,
        "lng": 139.764786
    },
    {
        "name": "三菱UFJフィナンシャルG",
        "address": "東京都千代田区丸の内2-7-1",
        "sector": "銀行業",
        "lat": 35.679085,
        "lng": 139.764679
    },
    {
        "name": "武田薬品工業",
        "address": "大阪府大阪市中央区道修町4-1-1",
        "sector": "医薬品",
        "lat": 34.688816,
        "lng": 135.500641
    },
    {
        "name": "本田技研工業",
        "address": "東京都港区南青山2-1-1",
        "sector": "輸送用機器",
        "lat": 35.672199,
        "lng": 139.723816
    },
    {
        "name": "キヤノン",
        "address": "東京都大田区下丸子3-30-2",
        "sector": "電気機器",
        "lat": 35.568001,
        "lng": 139.68306
    },
    {
        "name": "パナソニックHD",
        "address": "大阪府門真市大字門真1006",
        "sector": "電気機器",
        "lat": 34.739384,
        "lng": 135.574097
    },
    {
        "name": "リクルートHD",
        "address": "東京都千代田区丸の内1-9-2",
        "sector": "サービス業",
        "lat": 35.681252,
        "lng": 139.767242
    },
    {
        "name": "日本郵政",
        "address": "東京都千代田区大手町2-3-1",
        "sector": "サービス業",
        "lat": 35.686779,
        "lng": 139.767426
    },
    {
        "name": "KDDI",
        "address": "東京都千代田区飯田橋3-10-10",
        "sector": "情報・通信業",
        "lat": 35.700706,
        "lng": 139.74884
    },
    {
        "name": "セブン＆アイHD",
        "address": "東京都千代田区二番町8-8",
        "sector": "小売業",
        "lat": 35.685673,
        "lng": 139.734558
    },
    {
        "name": "伊藤忠商事",
        "address": "大阪府大阪市北区梅田3-1-3",
        "sector": "卸売業",
        "lat": 34.701881,
        "lng": 135.496338
    },
    {
        "name": "三井物産",
        "address": "東京都千代田区大手町1-2-1",
        "sector": "卸売業",
        "lat": 35.687737,
        "lng": 139.76265
    },
    {
        "name": "三菱商事",
        "address": "東京都千代田区丸の内2-3-1",
        "sector": "卸売業",
        "lat": 35.681313,
        "lng": 139.762589
    }
]