[
    {
        "company": "トヨタ自動車",
        "name": "本社・本社工場",
        "address": "愛知県豊田市トヨタ町1",
        "type": "工場・事務所",
        "lat": 35.051659,
        "lng": 137.160568
    },
    {
        "company": "トヨタ自動車",
        "name": "元町工場",
        "address": "愛知県豊田市元町1",
        "type": "工場",
        "lat": 35.071987,
        "lng": 137.130386
    },
    {
        "company": "トヨタ自動車",
        "name": "田原工場",
        "address": "愛知県田原市緑が浜3-1",
        "type": "工場",
        "lat": 34.713474,
        "lng": 137.294586
    },
    {
        "company": "ソニーグループ",
        "name": "ソニーシティ（本社）",
        "address": "東京都港区港南1-7-1",
        "type": "事務所",
        "lat": 35.631401,
        "lng": 139.743973
    },
    {
        "company": "ソニーグループ",
        "name": "ソニーシティ大崎",
        "address": "東京都品川区大崎2-10-1",
        "type": "事務所",
        "lat": 35.617706,
        "lng": 139.72757
    },
    {
        "company": "ソニーグループ",
        "name": "ソニーテクノロジーセンター",
        "address": "神奈川県厚木市旭町4-14-1",
        "type": "研究所・事務所",
        "lat": 35.432335,
        "lng": 139.369995
    },
    {
        "company": "任天堂",
        "name": "本社",
        "address": "京都府京都市南区上鳥羽鉾立町11-1",
        "type": "事務所",
        "lat": 34.970066,
        "lng": 135.755798
    },
    {
        "company": "任天堂",
        "name": "東京支店",
        "address": "東京都千代田区神田練塀町3",
        "type": "事務所",
        "lat": 35.699333,
        "lng": 139.774689
    },
    {
        "company": "任天堂",
        "name": "宇治工場",
        "address": "京都府宇治市槇島町薗場223-1",
        "type": "工場",
        "lat": 34.897682,
        "lng": 135.794647
    },
    {
        "company": "三菱地所",
        "name": "丸の内ビルディング",
        "address": "東京都千代田区丸の内2-4-1",
        "type": "賃貸ビル",
        "lat": 35.681046,
        "lng": 139.763794
    },
    {
        "company": "三菱地所",
        "name": "新丸の内ビルディング",
        "address": "東京都千代田区丸の内1-5-1",
        "type": "賃貸ビル",
        "lat": 35.682579,
        "lng": 139.764313
    },
    {
        "company": "三菱地所",
        "name": "横浜ランドマークタワー",
        "address": "神奈川県横浜市西区みなとみらい2-2-1",
        "type": "賃貸ビル",
        "lat": 35.455093,
        "lng": 139.631454
    },
    {
        "company": "ファーストリテイリング",
        "name": "UNIQLO CITY TOKYO",
        "address": "東京都江東区有明1-6-7",
        "type": "事務所・倉庫",
        "lat": 35.637043,
        "lng": 139.780579
    },
    {
        "company": "キーエンス",
        "name": "本社・研究所",
        "address": "大阪府大阪市東淀川区東中島1-3-14",
        "type": "事務所・研究所",
        "lat": 34.72765,
        "lng": 135.503357
    },
    {
        "company": "キーエンス",
        "name": "東京研究所",
        "address": "東京都港区台場2-3-1",
        "type": "研究所",
        "lat": 35.627892,
        "lng": 139.776321
    }
]