[
    {
        "name": "トヨタ自動車",
        "address": "愛知県豊田市トヨタ町1",
        "sector": "輸送用機器",
        "lat": 35.051659,
        "lng": 137.160568
    },
    {
        "name": "ソニーグループ",
        "address": "東京都港区港南1-7-1",
        "sector": "電気機器",
        "lat": 35.631401,
        "lng": 139.743973
    },
    {
        "name": "任天堂",
        "address": "京都府京都市南区上鳥羽鉾立町11-1",
        "sector": "その他製品",
        "lat": 34.970066,
        "lng": 135.755798
    },
    {
        "name": "ソフトバンクグループ",
        "address": "東京都港区海岸1-7-1",
        "sector": "情報・通信業",
        "lat": 35.655045,
        "lng": 139.760864
    },
    {
        "name": "キーエンス",
        "address": "大阪府大阪市東淀川区東中島1-3-14",
        "sector": "電気機器",
        "lat": 34.72765,
        "lng": 135.503357
    }
]